stop_id,stop_code,stop_name,stop_lat,stop_lon,wheelchair_boarding
4-671,671,Quantin,47.340904,5.056952,1
4-672,672,Joffre,47.340122,5.053125,1
4-675,675,Giraud,47.336197,5.051522,1
4-676,676,Alsace,47.33395,5.052917,0
4-677,677,Reims,47.332527,5.051084,0
4-103,103,Giono,47.352222,5.048681,1
4-235,235,Bossuet,47.32148,5.036638,1
4-272,272,Bossuet,47.32069,5.036942,1
4-236,236,Zola,47.319408,5.033224,1
4-271,271,Zola,47.319225,5.034962,1
4-653,653,Rolin,47.316177,5.026628,1
4-603,603,Diebolt,47.313786,5.017337,1
4-604,604,Bourroches Eiffel,47.313293,5.012945,0
4-654,654,Patte d'Oie,47.311924,5.003996,0
4-608,608,Dadolle,47.307774,4.999263,0
4-622,622,Favier,47.30555,4.993833,0
4-623,623,Bordet,47.306133,4.995609,0
4-1047,1047,La Garande,47.243065,5.112528,1
4-655,655,Noblemaire,47.311222,5.000031,0
4-656,656,Echaillons,47.31126,4.997624,0
4-657,657,Delestraint,47.311691,4.994906,0
4-1048,1048,Silo,47.240761,5.104346,1
4-659,659,Cent Ecus,47.310226,4.996421,0
4-637,637,Clos Chauveau,47.314537,5.001122,0
4-638,638,Lycée Marcs d'Or,47.315525,4.997757,0
4-639,639,Paupion,47.31638,4.995378,0
4-640,640,CFA-BTP,47.317009,4.991081,0
4-97,97,Collège Champollion,47.332035,5.074255,0
4-127,127,Longvic Mairie,47.284554,5.063001,1
4-128,128,Blés d'Or,47.285843,5.066678,0
4-1130,1130,St-Antoine,47.274853,5.120949,0
4-132,132,Pommerets,47.294765,5.055451,1
4-133,133,Tamaris,47.296574,5.054035,1
4-134,134,Bourillot,47.299057,5.052481,1
4-137,137,Chancenotte,47.305977,5.046785,1
4-138,138,Piscine Carrousel,47.307953,5.046528,1
4-139,139,Le Nôtre,47.310364,5.045499,1
4-140,140,Princes de Condé,47.313538,5.044164,1
4-1677,1677,J-J. Rousseau,47.324486,5.044705,1
4-142,142,Bibliothèque,47.319172,5.043338,1
4-289,289,Zipfel,47.302315,5.066672,1
4-1195,1195,Bouhey,47.291656,5.058309,1
4-292,292,Le Jolivet,47.306229,5.059501,1
4-294,294,Guibaudet,47.310459,5.053788,0
4-295,295,Prison,47.311848,5.052098,1
4-296,296,De Musset,47.314327,5.048042,1
4-407,407,Ravel,47.301548,5.039918,1
4-409,409,Attiret,47.303928,5.040912,1
4-684,684,Stéarinerie,47.30479,5.034458,0
4-411,411,Blanchisseries,47.307743,5.037466,1
4-412,412,INSPE,47.310524,5.038704,1
4-413,413,Bordot,47.31237,5.039804,1
4-414,414,Dumont,47.314472,5.041551,1
4-829,829,Parc des Sports,47.3223,5.066078,1
4-391,391,Doumer,47.321918,5.061294,0
4-392,392,Strasbourg,47.321545,5.057674,1
4-393,393,SNCF Porte Neuve,47.321632,5.053946,1
4-1288,1288,Dupuis,47.3265,5.038705,1
4-212,212,Théâtre,47.321445,5.043466,0
4-78,78,Square Darcy,47.324181,5.033597,1
4-28,28,Spuller,47.326279,5.030102,1
4-29,29,Génois,47.32933,5.025027,1
4-30,30,Ziem,47.330894,5.022366,1
4-721,721,Petit Bernard,47.307114,5.034007,0
4-489,489,Place des Savoirs,47.331451,5.06738,1
4-488,488,Seguin,47.332695,5.068463,1
4-490,490,Ste-Bernadette,47.331158,5.065313,1
4-863,863,D'Alembert,47.331036,5.064009,1
4-1223,1223,De Brosses,47.324203,5.036815,1
4-244,244,Mairey,47.300713,5.017105,1
4-245,245,Gambetta,47.298183,5.013895,0
4-249,249,Foussets,47.288506,5.005857,0
4-250,250,Curie,47.286419,5.003861,1
4-251,251,Bicentenaire,47.285309,5.005949,1
4-253,253,Langevin,47.283604,5.009686,0
4-231,231,Drapeau,47.333122,5.043846,0
4-1349,1349,Richet,47.306396,5.015709,1
4-702,702,Pommard,47.308067,5.018519,1
4-663,663,Roussottes,47.312351,5.006968,0
4-502,502,Croix des Valendons,47.300259,5.007515,1
4-503,503,Renan,47.298046,5.005156,1
4-504,504,Collège Chapitre,47.296108,5.004014,1
4-380,380,Bouteiller,47.326283,5.068982,1
4-476,476,Champ Prieur,47.330688,5.092654,0
4-475,475,Bons Compagnons,47.331604,5.091245,1
4-373,373,Paquier d'Aupré,47.33189,5.08791,1
4-478,478,Jacquat,47.331413,5.084536,1
4-479,479,Gauthier,47.330891,5.081172,1
4-385,385,Longènes,47.330212,5.076835,1
4-386,386,Castelnau,47.329628,5.073297,0
4-145,145,SNCF Brifaut,47.324409,5.027626,0
4-146,146,Bagatelle,47.323341,5.021999,0
4-149,149,Marmuzots,47.328159,5.012617,1
4-150,150,Fontaine aux Fées,47.329491,5.010672,1
4-151,151,Libération,47.332695,5.010276,1
4-780,780,Cottages,47.333225,5.008806,0
4-153,153,Côte aux Moines,47.337788,5.009193,0
4-154,154,Arbalétriers,47.338135,5.00357,0
4-155,155,Logis de Bourgogne,47.339008,4.998397,0
4-558,558,D'Arbaumont,47.31345,5.055144,1
4-557,557,Petites Roches,47.313339,5.057548,1
4-274,274,Mazen - Sully,47.314941,5.076529,0
4-824,824,CREPS,47.311756,5.080746,1
4-1060,1060,Gendarmerie,47.317047,5.121797,1
4-1061,1061,Croix St-Martin,47.314793,5.120886,1
4-61,61,Quetignerot,47.309883,5.107542,1
4-13,13,Atria,47.308437,5.110034,1
4-201,201,QUETIGNY Centre La Parenthèse,47.313755,5.109754,0
4-1062,1062,Quetigny Mairie,47.312317,5.115622,1
4-1369,1369,IUT,47.309727,5.069155,0
4-1174,1174,Léchenet,47.331459,5.077376,0
4-203,203,Piscine Olympique,47.314442,5.082088,1
4-1370,1370,21ème Siècle,47.309341,5.071755,1
4-17,17,Boulanger,47.317173,5.064466,1
4-18,18,Défense,47.317299,5.062196,1
4-19,19,Creux d'Enfer,47.31776,5.057852,1
4-21,21,Lycée H. Fontaine,47.318935,5.051466,1
4-22,22,Cité Dampierre,47.319633,5.046683,0
4-83,83,Cité Dampierre,47.319408,5.045904,1
4-160,160,Lavoisier,47.284042,5.043702,1
4-510,510,Palissy,47.285526,5.019875,0
4-481,481,Les Jardins,47.33519,5.075171,0
4-480,480,Les Buttes,47.337315,5.079729,1
4-370,370,La Planchotte,47.336655,5.084024,1
4-1294,1294,Néel,47.291443,5.045916,0
4-396,396,SNCF Vincenot,47.322487,5.026284,1
4-397,397,Albert 1er,47.322475,5.019427,1
4-398,398,CH La Chartreuse,47.322105,5.010924,1
4-399,399,Gorgets,47.320564,5.008742,0
4-402,402,Bachelard,47.318825,5.001389,1
4-338,338,Jura,47.341995,5.027214,0
4-331,331,Ranelagh,47.341724,5.029213,0
4-415,415,Hoin,47.333771,5.034121,0
4-741,741,Beaune,47.331203,5.03844,1
4-306,306,Mare,47.343964,5.016891,0
4-795,795,Combottes,47.339825,5.017227,1
4-302,302,Amandiers,47.337601,5.023166,1
4-298,298,Rouen,47.331032,5.033096,1
4-34,34,Chaumière,47.336933,5.011984,1
4-35,35,Herriot,47.337894,5.010377,1
4-37,37,Moulissards,47.342793,4.99901,0
4-38,38,Nachey,47.340691,4.996892,1
4-40,40,Picasso,47.337234,4.993754,1
4-42,42,Rétisseys,47.338593,4.991055,1
4-199,199,Eiffel,47.281094,5.050074,0
4-309,309,Route de Beaune,47.287636,5.013592,0
4-506,506,Vieux Bourg,47.291515,5.003467,0
4-220,220,1er Mai,47.314682,5.028645,0
4-218,218,Jaurès,47.310677,5.026365,0
4-497,497,Bourroches,47.30455,5.022748,1
4-498,498,Carraz,47.300869,5.020751,1
4-580,580,Malines,47.349407,5.074191,0
4-573,573,Quignard,47.349739,5.06903,0
4-1077,1077,Colchide,47.356079,5.058864,0
4-1018,1018,La Flamme,47.345554,4.964492,0
4-1017,1017,Courtois,47.344006,4.96525,0
4-547,547,Mayence,47.339123,5.06425,1
4-1015,1015,Victor Hugo,47.340687,4.970383,0
4-1014,1014,Plombières Mairie,47.339863,4.972911,0
4-1013,1013,Vallon,47.338875,4.975656,0
4-1012,1012,Combe aux Fées,47.337334,4.979671,0
4-1009,1009,Seize Vannes,47.332172,4.990087,1
4-1008,1008,Parc à Bateaux,47.329842,4.998231,0
4-1006,1006,CH La Chartreuse,47.322655,5.010938,1
4-1297,1297,Beauregard,47.28083,5.053618,1
4-745,745,Transvaal,47.315308,5.039304,1
4-739,739,Mazières,47.336205,5.039752,1
4-740,740,Houblonnière,47.332966,5.038913,0
4-679,679,1er Mai Foyer,47.314899,5.030601,1
4-901,901,Alger,47.311707,5.032783,0
4-744,744,Petit-Cîteaux,47.315193,5.034203,0
4-875,875,Chevreul Piscine,47.306866,5.04421,1
4-876,876,Chancenotte,47.305847,5.04699,1
4-877,877,Collège Lentillères,47.305119,5.052008,1
4-878,878,Péjoces,47.310623,5.060175,0
4-879,879,Mansart,47.313007,5.062851,1
4-881,881,Jeanne d'Arc,47.318249,5.065408,1
4-865,865,CHU - Hôpitaux,47.319016,5.065315,1
4-862,862,Laplace,47.332462,5.063036,0
4-971,971,St-Exupéry,47.336864,5.055012,1
4-970,970,Junot,47.339527,5.045534,1
4-158,158,Pierrat,47.28265,5.046304,0
4-730,730,Presles,47.356003,5.034503,0
4-1432,1432,Guesde,47.285202,5.068642,1
4-1614,1614,Chenôve Centre,47.294254,5.005972,1
4-429,429,Rue du Port,47.286057,5.041185,1
4-430,430,Romelet,47.286972,5.040054,1
4-432,432,Bertin,47.293678,5.037813,1
4-1323,1323,L'Ogive,47.294132,5.127311,1
4-1265,1265,Volnay,47.311417,5.014968,1
4-969,969,Terrillon,47.336418,5.032534,1
4-968,968,Suisse,47.334854,5.024365,1
4-1383,1383,Pasteur,47.295181,5.133399,1
4-1334,1334,Molière,47.302231,5.132617,1
4-1063,1063,Collège Rostand,47.317471,5.107895,1
4-1227,1227,Févret,47.31559,5.040628,0
4-1359,1359,Prés Potets,47.355846,5.026865,0
4-1187,1187,Cromois,47.314789,5.112759,1
4-417,417,St-Martin,47.338066,5.03598,0
4-36,36,La Fillotte,47.340141,5.005564,1
4-424,424,Les Charmes,47.345467,5.024648,0
4-1274,1274,Charton,47.285542,5.020405,1
4-767,767,Grands Clos,47.367718,5.020297,0
4-433,433,La Colombière,47.297813,5.039517,0
4-729,729,Les Plantes,47.364292,5.028337,0
4-43,43,Néruda,47.340504,4.989375,1
4-58,58,Visitation,47.304394,5.119828,1
4-291,291,Stade Poussots,47.305008,5.061662,1
4-307,307,Cottin,47.346378,5.013662,0
4-305,305,Confrérie,47.343197,5.018959,0
4-1010,1010,Chérains,47.334381,4.987191,1
4-817,817,Grande Légie,47.289513,5.109092,0
4-535,535,Dallas CRI,47.335987,5.061985,1
4-59,59,Lycée de Serres,47.307938,5.116241,0
4-57,57,Bois du Roy,47.303471,5.121897,1
4-47,47,Clématites,47.29998,5.134894,1
4-1052,1052,Capucines,47.302204,5.139973,0
4-893,893,Perret,47.301876,5.142774,0
4-892,892,Géraniums,47.298939,5.143678,0
4-891,891,Artisans,47.29311,5.146124,0
4-1353,1353,Trois Saffres,47.34713,5.030955,0
4-49,49,J. Moulin,47.292336,5.135301,0
4-821,821,Bassin,47.298199,5.103138,1
4-848,848,Dorain,47.292961,5.106003,0
4-847,847,Normand,47.291618,5.110299,0
4-816,816,Le Fort,47.288158,5.10586,1
4-815,815,Mimosas,47.290031,5.102808,0
4-1053,1053,Avenue de Tavaux,47.287743,5.133936,0
4-846,846,Montots,47.281403,5.106476,1
4-1054,1054,Excellence 2000,47.283379,5.133192,1
4-810,810,Racine,47.277931,5.111176,1
4-811,811,Corneille,47.278297,5.113166,0
4-1313,1313,Changey,47.354435,4.993286,1
4-799,799,Rue de Dijon,47.349991,5.001527,0
4-800,800,Bernard,47.35125,4.999603,0
4-1121,1121,Hauteville Mairie,47.364082,4.993712,0
4-858,858,Nation,47.347198,5.044215,1
4-224,224,Europe,47.353271,5.045781,0
4-226,226,Nation,47.346539,5.045122,0
4-732,732,Coteaux du Suzon,47.350704,5.039678,0
4-731,731,Touzet du Vigier,47.352673,5.03787,1
4-669,669,La Vapeur,47.345455,5.059091,1
4-1138,1138,Bressey ZA,47.30806,5.169686,0
4-974,974,Tire Pesseau,47.315777,5.005869,0
4-1191,1191,Allende,47.321312,5.106532,1
4-1190,1190,Prévert,47.320621,5.109038,0
4-1189,1189,Camus,47.319077,5.109646,0
4-783,783,Cortots,47.353821,5.026141,1
4-427,427,Belfontaine,47.352165,5.030322,1
4-1123,1123,Les Collines,47.367729,4.990953,0
4-822,822,Site funéraire Dijonmétropole,47.305206,5.092716,1
4-1311,1311,Alisiers,47.34705,5.001446,0
4-665,665,Churchill,47.353004,5.05341,1
4-666,666,Granville,47.350014,5.051907,1
4-667,667,Marcel Proust,47.348869,5.055848,0
4-463,463,Petit Ouges,47.254292,5.086114,0
4-464,464,De Gaulle,47.257435,5.08264,0
4-465,465,Ouges Mairie,47.262527,5.07514,0
4-466,466,Tilleul,47.26355,5.070736,0
4-1037,1037,Ecluse,47.279087,5.062643,1
4-1044,1044,Terminal,47.277939,5.069806,0
4-1140,1140,La Pringolle,47.232658,5.061679,0
4-1142,1142,Colleys,47.25732,5.04752,0
4-1034,1034,Perrigny Mairie,47.265778,5.006706,0
4-1033,1033,Tourelle,47.26704,5.005394,0
4-1032,1032,Terreau du Moulin,47.269733,5.00775,0
4-1031,1031,Lapostolet,47.273289,5.009634,0
4-1030,1030,Vignery,47.272686,5.006113,0
4-1029,1029,CAT - ESAT,47.274097,5.006156,1
4-1028,1028,Cap-Sud,47.278282,5.008984,0
4-962,962,Dardelain,47.278503,5.009881,1
4-1251,1251,Colombier,47.269653,4.990847,0
4-1250,1250,Méchalot,47.271873,4.991354,0
4-1249,1249,St-Vincent,47.27515,4.994492,0
4-923,923,Limburgerhof,47.291977,5.015317,0
4-922,922,Ferry,47.295017,5.017414,0
4-925,925,Collège Aymé,47.280235,5.003077,1
4-926,926,Rameau,47.278484,5.000185,0
4-378,378,Opaline,47.33308,5.090553,0
4-377,377,Marie de Bourgogne,47.33427,5.088867,1
4-1081,1081,Préfecture,47.324276,5.04218,1
4-1082,1082,Notre Dame,47.322853,5.041089,1
4-1084,1084,Darcy,47.322945,5.034845,0
4-1085,1085,St-Bénigne,47.321728,5.033725,0
4-1091,1091,Tivoli,47.31675,5.036915,0
4-1092,1092,Dumay,47.318668,5.038322,1
4-1093,1093,Cordeliers,47.318844,5.040078,1
4-214,214,Pôle Santé,47.361214,5.051032,0
4-1176,1176,Giroud,47.365314,5.049294,0
4-1208,1208,Brossolette,47.342079,4.990897,1
4-1205,1205,Milsand,47.308681,5.038532,1
4-1224,1224,Suquet,47.316036,5.033861,1
4-1270,1270,Sembat,47.297668,5.021794,0
4-1267,1267,St-Jacques,47.306999,5.02004,1
4-1278,1278,Claudel,47.306541,4.997402,0
4-1279,1279,Noisot,47.304111,4.998102,0
4-1298,1298,Verriers,47.300777,5.03632,0
4-1295,1295,Ateliers APF,47.290028,5.048768,1
4-1312,1312,Daix Mairie,47.352459,4.997809,0
4-1397,1397,Chambertin,47.366932,4.99869,0
4-1396,1396,La Paisse,47.368481,4.988009,0
4-1332,1332,Champs Creux,47.300652,5.122796,1
4-1402,1402,York,47.331009,5.059043,1
4-1389,1389,Pompon,47.333408,5.023339,0
4-1641,1641,Quetigny C. Cial,47.311481,5.103548,0
4-1656,1656,Tirbaude,47.328854,5.08921,1
4-15009,15009,Pièce Léger,47.277447,5.015462,1
4-1634,1634,La Combe,47.276241,5.118945,1
4-1633,1633,Neuilly Liberté,47.280014,5.107316,1
4-1678,1678,Beaux Arts,47.322258,5.042223,1
4-1679,1679,Cordeliers,47.318939,5.040996,1
4-1680,1680,Roussin,47.319851,5.038951,1
4-1681,1681,Bossuet,47.320805,5.037424,1
4-1713,1713,Fauconnet,47.338036,5.039619,1
4-10037,10037,Rente Neuve,47.275867,4.928575,0
4-179,179,Piscine Olympique,47.314747,5.08168,0
4-10004,10004,A. Patte,47.278042,4.919079,0
4-10005,10005,Les Pins,47.294617,4.937157,0
4-10006,10006,Corcelles les Monts,47.295242,4.94031,0
4-10007,10007,Combe à la Serpent,47.301582,4.961061,0
4-204,204,Valendons,47.301956,5.015116,0
4-10026,10026,St-Vincent de Paul,47.303272,4.990399,0
4-10042,10042,Bourvil,47.291016,5.130033,1
4-10043,10043,Trianon,47.288322,5.127894,1
4-10056,10056,Vaillant,47.329979,5.0446,1
4-10057,10057,Piot,47.306351,5.055048,1
4-695,695,Quantin,47.340832,5.057319,1
4-694,694,Joffre,47.340149,5.053471,1
4-691,691,Giraud,47.336212,5.051642,1
4-690,690,Alsace,47.334866,5.053162,0
4-689,689,Reims,47.333172,5.051991,0
4-104,104,Giono,47.352135,5.048664,1
4-633,633,Faubourg Raines,47.31744,5.026586,1
4-650,650,Rolin,47.315674,5.027755,1
4-630,630,Diebolt,47.313923,5.019104,1
4-629,629,Bourroches Eiffel,47.313198,5.013059,0
4-619,619,IME Montagne Ste-Anne,47.301666,4.990914,0
4-192,192,Valentin,47.288422,5.06034,1
4-661,661,Patte d'Oie,47.311794,5.003725,0
4-625,625,Dadolle,47.307842,4.999518,0
4-621,621,Sembel,47.304371,4.991102,0
4-1050,1050,La Garande,47.243221,5.112391,1
4-660,660,Noblemaire,47.31123,5.000507,0
4-1049,1049,Silo,47.241047,5.104704,0
4-10008,10008,Cent Ecus,47.310078,4.996215,1
4-647,647,Clos Chauveau,47.314606,5.000861,0
4-646,646,Lycée Marcs d'Or,47.315422,4.997858,0
4-645,645,Paupion,47.316231,4.995621,0
4-644,644,CFA-BTP,47.316887,4.991723,0
4-643,643,Saulx Tavannes,47.316982,4.989161,0
4-1405,1405,Duhamel,47.283974,5.056609,1
4-195,195,Longvic Mairie,47.284534,5.062921,1
4-10031,10031,Blés d'Or,47.285854,5.066612,0
4-10032,10032,Longvic Centre,47.287155,5.062842,1
4-10033,10033,Pommerets,47.294155,5.055764,1
4-190,190,Tamaris,47.296463,5.054069,1
4-189,189,Bourillot,47.29821,5.052874,1
4-186,186,Chancenotte,47.305515,5.04737,1
4-185,185,Piscine Carrousel,47.307613,5.04655,1
4-184,184,Le Nôtre,47.310204,5.045411,1
4-183,183,Princes de Condé,47.313095,5.044221,1
4-181,181,Bibliothèque,47.319057,5.043226,1
4-329,329,Zipfel,47.30196,5.066337,1
4-1196,1196,Bouhey,47.291317,5.058636,1
4-327,327,Le Jolivet,47.306351,5.059216,0
4-325,325,Guibaudet,47.310528,5.0535,0
4-324,324,Prison,47.312351,5.051303,1
4-323,323,De Musset,47.314137,5.048496,1
4-453,453,Ravel,47.301395,5.039884,0
4-451,451,Attiret,47.303974,5.040901,1
4-681,681,Stéarinerie,47.304138,5.034597,0
4-447,447,INSPE,47.310749,5.038702,0
4-446,446,Bordot,47.312954,5.040151,1
4-1217,1217,Dumont,47.314091,5.041214,1
4-831,831,Parc des Sports,47.322273,5.065772,1
4-361,361,Doumer,47.321873,5.061344,1
4-360,360,Strasbourg,47.321449,5.058278,1
4-359,359,SNCF Porte Neuve,47.321552,5.055106,1
4-1373,1373,Dupuis,47.32629,5.038033,1
4-77,77,Spuller,47.326069,5.030463,1
4-76,76,Génois,47.329323,5.024947,1
4-75,75,Ziem,47.330811,5.022467,1
4-725,725,Petit Bernard,47.30706,5.034017,0
4-532,532,Place des Savoirs,47.331139,5.067668,1
4-533,533,Seguin,47.333035,5.068189,1
4-531,531,Ste-Bernadette,47.331367,5.065641,1
4-905,905,D'Alembert,47.331329,5.063746,1
4-1229,1229,De Brosses,47.32412,5.03689,1
4-208,208,Poincaré,47.32888,5.058868,0
4-263,263,Mairey,47.300228,5.016564,0
4-262,262,Gambetta,47.298,5.013753,0
4-258,258,Foussets,47.288696,5.006158,0
4-257,257,Curie,47.286243,5.003747,1
4-256,256,Bicentenaire,47.285286,5.005776,1
4-278,278,Drapeau,47.333054,5.044054,0
4-1357,1357,Richet,47.306335,5.015614,1
4-719,719,Pommard,47.307995,5.018542,0
4-664,664,Roussottes,47.312279,5.006965,1
4-519,519,Croix des Valendons,47.300896,5.007984,1
4-518,518,Renan,47.299198,5.005888,1
4-517,517,Collège Chapitre,47.296425,5.004347,1
4-1439,1439,Bouteiller,47.326542,5.068704,1
4-1071,1071,Champ Prieur,47.330654,5.092639,1
4-1073,1073,Bons Compagnons,47.331539,5.0914,0
4-379,379,Paquier d'Aupré,47.331764,5.087175,1
4-372,372,Jacquat,47.331429,5.085027,1
4-483,483,Gauthier,47.331047,5.082505,1
4-366,366,Castelnau,47.329708,5.074506,0
4-178,178,SNCF Brifaut,47.32439,5.027585,0
4-177,177,Bagatelle,47.323502,5.022894,0
4-176,176,Perrières,47.322964,5.019267,0
4-174,174,Marmuzots,47.328197,5.012526,1
4-173,173,Fontaine aux Fées,47.329483,5.010605,1
4-172,172,Libération,47.33231,5.011382,1
4-781,781,Cottages,47.333141,5.008855,0
4-170,170,Côte aux Moines,47.337734,5.009191,1
4-169,169,Arbalétriers,47.338116,5.003622,0
4-168,168,Logis de Bourgogne,47.338718,4.998502,0
4-560,560,D'Arbaumont,47.313358,5.054782,1
4-561,561,Petites Roches,47.313213,5.057925,1
4-275,275,Mazen Sully,47.31477,5.076652,0
4-835,835,CREPS,47.311638,5.08074,1
4-1070,1070,Gendarmerie,47.317204,5.121289,1
4-1069,1069,Croix St-Martin,47.315228,5.121478,1
4-98,98,Quetignerot,47.309551,5.107908,1
4-99,99,Atria,47.308289,5.110185,1
4-198,198,QUETIGNY Centre La Parenthèse,47.313709,5.109751,0
4-1068,1068,Quetigny Mairie,47.312298,5.116057,0
4-1366,1366,IUT,47.309906,5.068807,0
4-421,421,Piscine Olympique,47.314297,5.082571,1
4-1365,1365,21ème Siècle,47.30925,5.071393,1
4-89,89,Boulanger,47.317139,5.063975,1
4-88,88,Défense,47.317238,5.060975,1
4-87,87,Creux d'Enfer,47.317486,5.058394,1
4-1603,1603,Lycée H. Fontaine,47.319145,5.051741,1
4-84,84,Lycée H. Fontaine,47.31871,5.05029,1
4-1308,1308,Champs Viaux,47.3508,4.998084,1
4-207,207,Lavoisier,47.283783,5.044046,1
4-512,512,Palissy,47.286636,5.017338,0
4-473,473,Les Jardins,47.335278,5.075758,0
4-474,474,Les Buttes,47.337551,5.080442,1
4-1307,1307,Meix Pillon,47.352364,4.994242,1
4-355,355,SNCF Vincenot,47.322227,5.02737,1
4-353,353,Albert 1er,47.322418,5.019199,1
4-352,352,CH La Chartreuse,47.322197,5.01122,1
4-351,351,Gorgets,47.320286,5.008623,0
4-348,348,Bachelard,47.318645,5.00134,1
4-345,345,Belin,47.321098,4.99957,1
4-438,438,Jura,47.341988,5.027161,0
4-439,439,Ranelagh,47.34174,5.029306,0
4-445,445,Hoin,47.333458,5.033999,0
4-753,753,Beaune,47.331421,5.038464,0
4-312,312,Mare,47.343582,5.015906,1
4-313,313,Les Créots,47.341782,5.014756,0
4-791,791,Combottes,47.339737,5.017169,1
4-316,316,Amandiers,47.337639,5.023075,0
4-320,320,Rouen,47.33065,5.032851,0
4-779,779,Dubois,47.325298,5.03233,1
4-71,71,Chaumière,47.336555,5.012733,1
4-70,70,Herriot,47.337646,5.010722,1
4-68,68,Moulissards,47.342808,4.999566,1
4-67,67,Nachey,47.34166,4.997417,1
4-65,65,Picasso,47.337353,4.994104,1
4-63,63,Rétisseys,47.338554,4.991211,1
4-161,161,Eiffel,47.280888,5.050487,0
4-513,513,Route de Beaune,47.287453,5.014376,0
4-515,515,Vieux Bourg,47.291512,5.003547,0
4-219,219,1er Mai,47.314659,5.028842,0
4-217,217,Jaurès,47.310608,5.026573,0
4-216,216,Bourroches,47.305321,5.023608,0
4-523,523,Carraz,47.300152,5.020609,0
4-586,586,Malines,47.34951,5.074038,0
4-593,593,Quignard,47.349701,5.069028,0
4-1074,1074,Colchide,47.356232,5.058938,0
4-993,993,La Flamme,47.345844,4.964427,0
4-994,994,Courtois,47.34407,4.96524,0
4-548,548,Mayence,47.338921,5.064001,1
4-996,996,Victor Hugo,47.340664,4.97062,1
4-997,997,Plombières Mairie,47.339909,4.972847,1
4-998,998,Vallon,47.338795,4.975917,0
4-999,999,Combe aux Fées,47.337524,4.979125,0
4-1002,1002,Seize Vannes,47.331982,4.990488,1
4-1003,1003,Parc à Bateaux,47.32983,4.998363,1
4-1005,1005,CH La Chartreuse,47.322567,5.010841,1
4-1290,1290,Beauregard,47.281265,5.053931,1
4-748,748,Transvaal,47.315395,5.037786,1
4-755,755,Mazières,47.335632,5.03963,1
4-754,754,Houblonnière,47.333179,5.039043,0
4-686,686,1er Mai Foyer,47.315056,5.030371,1
4-873,873,Alger,47.31218,5.032912,0
4-749,749,Petit-Cîteaux,47.315128,5.033895,1
4-871,871,Chevreul Piscine,47.307251,5.043488,1
4-870,870,Chancenotte,47.305962,5.046758,1
4-869,869,Collège Lentillères,47.305256,5.052174,1
4-322,322,Baudin,47.315441,5.045888,1
4-868,868,Péjoces,47.309715,5.058977,0
4-867,867,Mansart,47.312809,5.062483,1
4-1212,1212,Jeanne d'Arc,47.31797,5.065341,0
4-903,903,CHU - Hôpitaux,47.319843,5.065331,1
4-906,906,Laplace,47.332714,5.063115,1
4-983,983,St-Exupéry,47.336864,5.055409,1
4-985,985,Junot,47.339554,5.046317,1
4-200,200,Pierrat,47.282116,5.046819,0
4-764,764,Presles,47.355328,5.034879,0
4-1431,1431,Guesde,47.285145,5.068745,1
4-1619,1619,Chenôve Centre,47.294373,5.005621,1
4-458,458,Rue du Port,47.285759,5.041514,1
4-457,457,Romelet,47.287334,5.039583,0
4-455,455,Bertin,47.293461,5.037445,1
4-1330,1330,L'Ogive,47.294296,5.127227,1
4-1266,1266,Volnay,47.311962,5.014466,1
4-987,987,Terrillon,47.336449,5.032337,1
4-988,988,Suisse,47.334633,5.023361,1
4-1386,1386,Pasteur,47.295273,5.133338,1
4-1335,1335,Molière,47.302204,5.132576,1
4-1067,1067,Collège Rostand,47.31749,5.107909,1
4-1344,1344,Prés Potets,47.355724,5.026793,0
4-117,117,Cromois,47.314552,5.112919,1
4-443,443,St-Martin,47.337769,5.035171,0
4-69,69,La Fillotte,47.340412,5.005154,1
4-436,436,Les Charmes,47.345684,5.024301,1
4-1258,1258,Charton,47.285534,5.019876,1
4-454,454,La Colombière,47.297569,5.039942,0
4-765,765,Les Plantes,47.364784,5.028018,0
4-62,62,Néruda,47.340515,4.989296,1
4-101,101,Visitation,47.304405,5.119696,1
4-328,328,Stade Poussots,47.304607,5.062197,0
4-311,311,Cottin,47.346569,5.013619,1
4-1001,1001,Chérains,47.334236,4.987555,1
4-842,842,Grande Légie,47.289482,5.109236,0
4-900,900,Lycée de Serres,47.307827,5.116354,0
4-102,102,Bois du Roy,47.303188,5.123232,1
4-112,112,Clématites,47.299278,5.134923,1
4-1058,1058,Capucines,47.302208,5.14029,0
4-895,895,Perret,47.301762,5.142675,0
4-896,896,Géraniums,47.298958,5.143626,0
4-897,897,Artisans,47.294216,5.145759,0
4-1362,1362,Trois Saffres,47.347126,5.030253,0
4-838,838,Bassin,47.297905,5.102898,1
4-852,852,Dorain,47.292843,5.106473,1
4-853,853,Normand,47.291592,5.110258,0
4-843,843,Le Fort,47.28809,5.106081,1
4-844,844,Mimosas,47.290089,5.102679,0
4-1057,1057,Avenue de Tavaux,47.288021,5.133964,0
4-1380,1380,Montots,47.281612,5.106698,1
4-1056,1056,Excellence 2000,47.283382,5.13302,0
4-1379,1379,Racine,47.278049,5.110852,1
4-1378,1378,Corneille,47.278675,5.113225,1
4-1306,1306,Changey,47.354733,4.992572,1
4-788,788,Rue de Dijon,47.349758,5.001727,0
4-787,787,Bernard,47.350784,5.000176,0
4-884,884,Nation,47.347183,5.043645,1
4-285,285,Europe,47.353249,5.045992,0
4-283,283,Nation,47.346497,5.045318,0
4-762,762,Coteaux du Suzon,47.350796,5.040106,0
4-763,763,Touzet du Vigier,47.352631,5.037842,0
4-697,697,La Vapeur,47.346367,5.059349,1
4-1137,1137,Bressey ZA,47.308525,5.169882,0
4-980,980,Tire Pesseau,47.31601,5.005232,1
4-121,121,Allende,47.320988,5.105761,1
4-120,120,Prévert,47.320538,5.109206,0
4-119,119,Camus,47.319157,5.109703,0
4-782,782,Cortots,47.353794,5.026471,1
4-459,459,Belfontaine,47.352131,5.030294,1
4-1119,1119,Place du Puits,47.365925,4.994997,0
4-1118,1118,Les Collines,47.367844,4.991078,0
4-837,837,Site funéraire Dijonmétropole,47.305058,5.09251,1
4-1309,1309,Alisiers,47.346859,5.001384,0
4-701,701,Churchill,47.352695,5.053102,1
4-700,700,Granville,47.350426,5.0521,1
4-699,699,Proust,47.349224,5.054913,0
4-470,470,Petit Ouges,47.254295,5.085956,0
4-469,469,De Gaulle,47.257549,5.082329,0
4-468,468,Ouges Mairie,47.26244,5.075109,0
4-467,467,Tilleul,47.263546,5.070472,0
4-1039,1039,Ecluse,47.278748,5.062572,0
4-1045,1045,Terminal,47.277908,5.069844,0
4-1146,1146,Colleys,47.256737,5.046723,0
4-1020,1020,Perrigny Mairie,47.266117,5.006419,1
4-1021,1021,Tourelle,47.267128,5.005531,0
4-1022,1022,Terreau du Moulin,47.269962,5.00796,0
4-1023,1023,Lapostolet,47.273289,5.009224,0
4-1024,1024,Vignery,47.272774,5.006275,0
4-1026,1026,CAT - ESAT,47.274754,5.006612,1
4-1027,1027,Cap-Sud,47.278351,5.009067,0
4-959,959,Dardelain,47.278465,5.009959,1
4-1252,1252,Colombier,47.26973,4.990745,0
4-1253,1253,Méchalot,47.272423,4.99183,1
4-1254,1254,St-Vincent,47.275204,4.994521,0
4-941,941,Limburgerhof,47.291912,5.01538,0
4-942,942,Ferry,47.295307,5.017641,1
4-939,939,Collège Aymé,47.280457,5.003247,1
4-938,938,Rameau,47.278389,5.000022,0
4-1275,1275,Herbiottes,47.278435,5.016398,1
4-374,374,Opaline,47.333179,5.090545,0
4-375,375,Marie de Bourgogne,47.334023,5.089185,0
4-1685,1685,Préfecture,47.324242,5.042165,0
4-1684,1684,Notre Dame,47.322502,5.041031,1
4-485,485,Pôle Santé,47.36134,5.051105,0
4-1180,1180,Giroud,47.365406,5.04959,0
4-1209,1209,Brossolette,47.342026,4.990854,1
4-1213,1213,Milsand,47.308739,5.038852,1
4-1228,1228,Suquet,47.316086,5.033679,1
4-1262,1262,Sembat,47.297348,5.022056,0
4-1264,1264,St-Jacques,47.306229,5.021351,1
4-1281,1281,Claudel,47.306484,4.997558,0
4-1289,1289,Verriers,47.300121,5.036644,0
4-1293,1293,Ateliers APF,47.289352,5.049951,1
4-1392,1392,Chambertin,47.36713,4.998991,0
4-1394,1394,La Paisse,47.368587,4.987763,0
4-1321,1321,Champs Creux,47.300415,5.12322,1
4-1399,1399,York,47.331245,5.059227,0
4-1388,1388,Pompon,47.333469,5.023514,0
4-1629,1629,Quetigny C. Cial,47.311531,5.10412,0
4-1646,1646,Tirbaude,47.329086,5.088957,1
4-1617,1617,Pièce Léger,47.277527,5.015149,1
4-1627,1627,Vaillant,47.330002,5.044469,1
4-1635,1635,La Combe,47.276676,5.118399,1
4-1636,1636,Neuilly Liberté,47.279778,5.107489,1
4-1654,1654,Saint-Apollinaire Mairie,47.333721,5.085489,1
4-1649,1649,Saint-Apollinaire Mairie,47.333748,5.085133,1
4-1655,1655,Marie de Bourgogne,47.333912,5.088094,1
4-1683,1683,Beaux Arts,47.322239,5.042328,1
4-1625,1625,Canzio,47.342655,5.000671,1
4-15000,15000,Piscine Olympique,47.315247,5.081494,0
4-10012,10012,A. Patte,47.278275,4.918653,0
4-10011,10011,Les Pins,47.294621,4.937144,0
4-10010,10010,Corcelles les Monts,47.295315,4.940207,0
4-10009,10009,Combe à la Serpent,47.301521,4.961084,0
4-10038,10038,St-Laurent,47.357529,4.990697,1
4-10044,10044,Bourvil,47.290615,5.129813,1
4-10045,10045,Trianon,47.28804,5.127615,1
4-10058,10058,Piot,47.306637,5.055195,1
4-10064,10064,Docteur Schmitt,47.324162,5.073758,1
4-10065,10065,Hyacinthe Vincent,47.326183,5.073253,1
4-144,144,Bibliothèque,47.319271,5.042919,0
4-559,559,Bougeot,47.296043,5.008046,0
4-554,554,Bougeot,47.296078,5.008061,0
4-1647,1647,Jean Giraudoux,47.330254,5.089017,0
4-752,752,Barbe,47.329006,5.039639,0
4-541,541,Billardon,47.328373,5.069619,1
4-1115,1115,Billardon,47.328457,5.070629,0
4-1358,1358,Bourroches Eiffel,47.312805,5.014151,1
4-626,626,Calmette,47.309517,5.001825,1
4-91,91,Carmélites,47.285645,5.07426,0
4-685,685,Lycée le Castel,47.312878,5.036944,1
4-872,872,Collège Le Parc,47.310944,5.033022,1
4-321,321,Cellerier,47.327652,5.033269,0
4-456,456,Ecole des Métiers,47.291649,5.035991,1
4-1255,1255,Cours Fleury,47.327415,5.042259,0
4-334,334,Grands Crus,47.284592,5.008149,1
4-1147,1147,Chevigny Pont Neuf,47.242931,5.056915,0
4-937,937,Champforey,47.27763,4.997458,0
4-952,952,Marsannay,47.279789,5.006493,1
4-609,609,Chicago,47.299564,5.056939,1
4-113,113,Chevigny Mairie,47.302048,5.136802,1
4-86,86,Champmaillot,47.318302,5.055841,1
4-332,332,Cimetière,47.303024,5.064856,0
4-32,32,Clomiers,47.333496,5.016486,1
4-784,784,Fontaine C. Cial,47.35564,5.030325,1
4-534,534,Lycée Eiffel,47.334526,5.066319,1
4-1145,1145,Domois,47.259644,5.047849,0
4-907,907,Boutaric,47.334686,5.061534,1
4-549,549,Epirey Capnord (descente),47.339802,5.068614,1
4-25,25,Ecoparc Dijon Bourgogne,47.334724,5.10605,0
4-688,688,Marne,47.330635,5.048856,0
4-10046,10046,Champ Chardon,47.283291,5.12824,0
4-866,866,Fac. des Sciences,47.314995,5.064064,1
4-437,437,Félizots,47.342796,5.023745,0
4-280,280,Junot,47.338764,5.044609,0
4-435,435,Monnet,47.346893,5.026361,1
4-836,836,De Coubertin,47.309288,5.083054,1
4-317,317,Houdart,47.336025,5.025086,1
4-118,118,Ronde,47.317314,5.109237,0
4-197,197,Cap Vert,47.313412,5.094741,1
4-1004,1004,Le Lac,47.325466,5.007637,0
4-196,196,Bief du Moulin,47.284256,5.061015,1
4-110,110,Lescure,47.337021,5.109002,1
4-995,995,Lycée Kir,47.341488,4.967165,0
4-1314,1314,Longvic Z.I.,47.275417,5.062112,0
4-562,562,Mansart,47.312328,5.063041,1
4-1127,1127,Marronniers,47.282265,5.10652,1
4-832,832,Urgences CHU,47.322315,5.069269,1
4-94,94,Mont Blanc,47.299789,5.076004,0
4-171,171,Fassoles,47.334949,5.009356,1
4-1331,1331,Chevigny,47.297413,5.125604,1
4-74,74,St-Mesmin,47.332352,5.01852,1
4-1310,1310,Maladière,47.344555,5.000752,0
4-1653,1653,Moirey,47.333668,5.08358,0
4-845,845,Pré aux Moines,47.290035,5.099713,1
4-187,187,Parc,47.302307,5.048676,0
4-530,530,Grésilles Trimolet,47.329247,5.065017,1
4-109,109,Pré Rondot,47.338581,5.105918,1
4-450,450,Morel Retz,47.305202,5.039957,0
4-698,698,Roosevelt,47.348431,5.057282,1
4-628,628,Rossignol Eiffel,47.312675,5.010399,1
4-326,326,Salengro,47.308289,5.057224,1
4-851,851,Sennecey Mairie,47.291534,5.102053,0
4-696,696,Via Romana,47.342854,5.058309,1
4-632,632,Ste-Chantal,47.315536,5.024068,1
4-175,175,St-François,47.325218,5.014905,1
4-314,314,St-Luc,47.340897,5.017559,1
4-66,66,Jouvet,47.338909,4.996883,0
4-180,180,Théâtre,47.320923,5.043201,1
4-1078,1078,Toison d'Or,47.354599,5.051702,1
4-472,472,Vigne aux Chiens,47.333275,5.075562,0
4-1000,1000,Vaux Bruns,47.335732,4.983617,1
4-524,524,Z.I. Beauregard,47.278973,5.054913,0
4-521,521,22 Janvier,47.276405,5.058459,0
4-522,522,Longvic Z.I.,47.275043,5.060532,0
4-526,526,Fortin,47.272694,5.051274,0
4-527,527,Henry Darcy,47.268059,5.057876,0
4-529,529,Via Agrippa,47.270267,5.048506,0
4-536,536,Freycinet,47.269367,5.04612,0
4-555,555,Oscara,47.270622,5.054832,0
4-1241,1241,Bourroches Eiffel,47.314301,5.014067,1
4-1238,1238,Bel Air,47.313221,5.003161,0
4-606,606,Patte d'Oie,47.311169,5.004263,0
4-1239,1239,Saulx Tavannes,47.316975,4.989028,0
4-1043,1043,Longvic Centre,47.286942,5.063982,0
4-1097,1097,Prison,47.313023,5.051483,1
4-1210,1210,Chèvre Morte,47.331661,5.0145,1
4-1604,1604,Lycée Carnot,47.323673,5.049483,1
4-213,213,Poincaré,47.328815,5.058547,0
4-1615,1615,Thibaut,47.293686,5.008722,1
4-953,953,Langevin,47.284779,5.010658,0
4-807,807,Fyot,47.310024,5.016037,1
4-367,367,Longènes,47.33025,5.077446,1
4-1243,1243,Leclerc,47.3311,5.011917,1
4-1226,1226,Champeaux,47.301395,5.063595,0
4-1064,1064,Château,47.314327,5.105786,1
4-93,93,Lycée H. Fontaine,47.317726,5.051285,1
4-1664,1664,La Gentiane,47.278648,5.115433,1
4-1652,1652,La Planchotte,47.336517,5.083726,0
4-1237,1237,Gorgets,47.320183,5.009583,0
4-1346,1346,Glycines,47.339035,5.020987,0
4-10047,10047,Bizet,47.332027,5.027043,1
4-785,785,Dubois,47.325188,5.032444,1
4-1170,1170,Canzio,47.342869,5.000496,1
4-10017,10017,Carraz,47.300304,5.021,0
4-1326,1326,Menuisiers,47.290874,5.149155,0
4-1368,1368,AgroSup,47.310993,5.066163,1
4-1347,1347,Terrillon,47.337223,5.03231,0
4-1404,1404,Le Suzon,47.346764,5.035108,0
4-80,80,Lycée de Serres,47.308693,5.116214,0
4-1324,1324,Kennedy,47.292953,5.130253,1
4-1325,1325,J. Moulin,47.292534,5.135285,0
4-1395,1395,Hauteville Mairie,47.364349,4.992759,0
4-1393,1393,Place du Puits,47.365864,4.995046,1
4-10039,10039,St-Laurent,47.357231,4.990709,1
4-10066,10066,Docteur Schmitt,47.324112,5.073637,1
4-10067,10067,Hyacinthe Vincent,47.326309,5.073167,1
4-1350,1350,Abbé Chanlon,47.304878,5.01251,1
4-365,365,Billardon,47.328876,5.068903,0
4-955,955,Marsannay,47.280182,5.006566,0
4-1384,1384,Chevigny Mairie,47.301342,5.13519,1
4-10059,10059,Clomiers,47.33408,5.016144,1
4-10001,10001,Fontaine C. Cial,47.355652,5.03022,1
4-10068,10068,Longvic Centre,47.287334,5.063738,1
4-24,24,Champ Chardon,47.283413,5.127625,0
4-95,95,Collège Rameau,47.321915,4.995851,0
4-978,978,Allobroges,47.339386,5.039185,1
4-270,270,Monge Cité de la gastronomie,47.317387,5.031534,1
4-1172,1172,Lycée Boivin,47.302135,5.127623,1
4-1351,1351,L. de Vinci,47.302689,5.010323,1
4-45,45,Lescure,47.337582,5.108899,1
4-1650,1650,Moirey,47.334602,5.083283,0
4-1219,1219,30 Octobre,47.320984,5.052033,1
4-210,210,Grésilles Trimolet,47.328846,5.064096,0
4-60,60,Pré Rondot,47.338314,5.105388,1
4-723,723,Theuriet,47.33815,5.050509,0
4-855,855,Morel Retz,47.305557,5.039406,0
4-769,769,Salengro,47.308136,5.056436,1
4-10069,10069,Wilson Sisley,47.316563,5.042583,1
4-10074,10074,Bouchet,47.346821,5.078098,0
4-538,538,Via Agrippa,47.270168,5.048528,0
4-1240,1240,Bel Air,47.31266,5.004046,1
4-627,627,Patte d'Oie,47.311363,5.004458,0
4-1291,1291,Duhamel,47.284119,5.056907,1
4-1042,1042,Longvic Centre,47.287041,5.063921,0
4-1099,1099,Prison,47.312965,5.051639,1
4-1207,1207,Chèvre Morte,47.330776,5.0139,1
4-1607,1607,Lycée Carnot,47.323517,5.049607,1
4-1618,1618,Thibaut,47.293644,5.009024,1
4-806,806,Fyot,47.30975,5.016181,1
4-1236,1236,Leclerc,47.330624,5.011549,0
4-1225,1225,Champeaux,47.301537,5.063787,0
4-1066,1066,Château,47.314693,5.105898,1
4-1665,1665,La Gentiane,47.278885,5.114943,1
4-1242,1242,Gorgets,47.320206,5.00977,0
4-1360,1360,Glycines,47.339214,5.021076,0
4-10048,10048,Bizet,47.332092,5.026953,1
4-1222,1222,Dubois,47.325153,5.032031,1
4-551,551,Terrillon,47.337303,5.03238,0
4-10018,10018,Carraz,47.300385,5.02115,0
4-1327,1327,Menuisiers,47.29089,5.149249,0
4-1367,1367,AgroSup,47.312096,5.064062,1
4-1442,1442,Gare SNCF Sévigné,47.322529,5.030337,1
4-1329,1329,Kennedy,47.293079,5.129929,1
4-10060,10060,MARSANNAY Portes du Sud,47.278889,5.019343,1
4-1356,1356,Abbé Chanlon,47.304962,5.012739,1
4-10030,10030,Billardon,47.329575,5.069826,0
4-1375,1375,Lycée de Gaulle,47.347095,5.041641,1
4-1385,1385,Chevigny Mairie,47.301353,5.134688,1
4-10061,10061,Clomiers,47.334049,5.016328,1
4-1342,1342,Dallas CRI,47.336594,5.060758,1
4-1586,1586,Marne,47.330334,5.048312,0
4-986,986,Allobroges,47.339325,5.038308,1
4-15002,15002,Monge Cité de la gastronomie,47.316765,5.030775,1
4-1339,1339,Chanoine Kir,47.317745,5.003678,1
4-1355,1355,L. de Vinci,47.302544,5.009972,1
4-131,131,Valentin,47.288395,5.060273,1
4-1637,1637,Marronniers,47.28252,5.105965,0
4-1440,1440,Urgences CHU,47.322598,5.069535,1
4-1216,1216,30 Octobre,47.320858,5.05204,1
4-211,211,Grésilles Trimolet,47.328819,5.064121,0
4-984,984,Theuriet,47.33847,5.050261,1
4-770,770,Salengro,47.308262,5.056429,1
4-10075,10075,Bouchet,47.34687,5.078021,0
4-1218,1218,Blanchisseries,47.307117,5.037341,0
4-1602,1602,Parc des Sports,47.322487,5.065055,1
4-1398,1398,Poincaré,47.329346,5.059302,1
4-1231,1231,Perrières,47.322968,5.019187,0
4-1443,1443,Gare SNCF,47.322521,5.030602,1
4-130,130,Bons Compagnons,47.332386,5.090967,1
4-106,106,Bons Compagnons,47.332432,5.091288,1
4-107,107,Bois Guillaume,47.334705,5.097429,1
4-129,129,Bois Guillaume,47.334476,5.096914,1
4-108,108,Robin,47.336182,5.101305,1
4-156,156,Robin,47.336403,5.101807,1
4-1333,1333,Chevigny Mairie,47.302113,5.136713,1
4-1400,1400,Boutaric,47.335152,5.060406,1
4-1287,1287,Fauconnet,47.338726,5.039337,1
4-1214,1214,Chanoine Kir,47.317131,5.003766,1
4-388,388,Grésilles Trimolet,47.329193,5.065001,0
4-1372,1372,Theuriet,47.337959,5.050923,0
4-357,357,Piscine,47.322491,5.001307,1
4-364,364,Piscine,47.322628,5.001182,1
4-387,387,Champs Perdrix,47.319786,5.0046,1
4-401,401,Champs Perdrix,47.320473,5.003721,1
4-394,394,Avenue du Lac,47.318581,5.005334,1
4-395,395,Avenue du Lac,47.318584,5.005599,1
4-1292,1292,Longvic Centre,47.28717,5.062711,1
4-1601,1601,Montmuzard,47.324738,5.065064,1
4-1608,1608,Parc des Sports,47.322674,5.065144,1
4-1403,1403,Poincaré,47.32933,5.059236,0
4-1675,1675,Auditorium,47.328434,5.052531,1
4-1596,1596,Dubois,47.325161,5.031317,1
4-1363,1363,Le Suzon,47.346775,5.035307,0
4-368,368,Lagny,47.316605,5.034975,0
4-1401,1401,Boutaric,47.335209,5.060329,1
4-1371,1371,Toison d'Or,47.354462,5.052279,1
4-1609,1609,Montmuzard,47.32534,5.065055,1
4-1676,1676,Auditorium,47.328491,5.051951,1
4-1642,1642,Grand Marché,47.312222,5.103454,1
4-1628,1628,Grand Marché,47.312458,5.102963,1
4-10071,10071,Billardon,47.330212,5.070679,1
4-1041,1041,Ecole de Gendarmerie,47.27375,5.075278,0
4-766,766,Ahuy (Arrêt de descente),47.367588,5.023933,1
4-728,728,AHUY,47.367348,5.024676,1
4-477,477,Jean Giraudoux,47.330284,5.0889,1
4-1542,1542,Auditorium,47.328594,5.051917,1
4-1562,1562,Auditorium,47.328621,5.051931,1
4-742,742,Barbe,47.328934,5.039754,0
4-516,516,Becquerel,47.288601,5.022794,0
4-405,405,Belin,47.321136,4.999453,1
4-125,125,LONGVIC,47.282272,5.058969,1
4-539,539,Billardon,47.329174,5.070044,1
4-1110,1110,Billardon,47.328819,5.069827,1
4-1457,1457,Bourroches,47.305359,5.023478,1
4-1490,1490,Bourroches,47.30545,5.023442,1
4-1348,1348,Bourroches Eiffel,47.313568,5.01501,1
4-1263,1263,Bourroches,47.305305,5.022681,1
4-1136,1136,BRESSEY,47.309113,5.182949,0
4-1046,1046,BRETENIERE,47.238396,5.115088,1
4-1543,1543,Grand Marché,47.312401,5.10345,1
4-1563,1563,Grand Marché,47.312439,5.103465,1
4-607,607,Calmette,47.309643,5.001871,1
4-1544,1544,Université,47.311653,5.072879,1
4-1564,1564,Université,47.311699,5.072895,1
4-1364,1364,Université,47.311295,5.073576,1
4-1038,1038,LONGVIC Carmélites,47.285805,5.073581,1
4-680,680,Lycée le Castel,47.31263,5.037567,1
4-733,733,Lycée de Gaulle,47.347111,5.041774,0
4-902,902,Collège Le Parc,47.310162,5.033049,0
4-297,297,Cellerier,47.327801,5.033409,0
4-431,431,Ecole des Métiers,47.291729,5.036035,1
4-1248,1248,Cours Fleury,47.327309,5.04097,1
4-252,252,Grands Crus,47.28458,5.008333,1
4-234,234,Grangier,47.322723,5.036965,1
4-1545,1545,Cap Vert,47.313583,5.094366,1
4-1565,1565,Cap Vert,47.313629,5.094355,1
4-1459,1459,CHENÔVE Centre,47.294613,5.006453,1
4-1534,1534,CHENÔVE Centre,47.294604,5.006426,1
4-563,563,Chenôve Centre,47.294231,5.004622,0
4-564,564,Chenôve Centre,47.293613,5.004141,0
4-1141,1141,Chevigny Pont Neuf,47.243359,5.056725,1
4-927,927,Champforey,47.27792,4.998174,0
4-254,254,Marsannay,47.279888,5.006445,1
4-448,448,Chicago,47.299351,5.056386,1
4-977,977,Chanoine Kir,47.317459,5.002816,1
4-16,16,Charet,47.308491,5.011527,0
4-20,20,Champmaillot,47.318623,5.054918,1
4-1546,1546,CHU - Hôpitaux,47.32011,5.067369,1
4-1566,1566,CHU - Hôpitaux,47.320145,5.067371,1
4-290,290,Cimetière,47.303749,5.063834,0
4-73,73,Clomiers,47.333527,5.016328,1
4-487,487,Lycée Eiffel,47.334286,5.066704,1
4-1129,1129,NEUILLY-CRIMOLOIS République,47.273975,5.119567,1
4-1462,1462,Darcy,47.323784,5.034305,1
4-1494,1494,Darcy,47.323811,5.034293,1
4-1600,1600,Darcy Sévigné,47.323246,5.032756,1
4-1230,1230,Darcy Devosge,47.324154,5.034297,1
4-1464,1464,Le Mail,47.299774,5.010495,1
4-1496,1496,Le Mail,47.299812,5.01047,1
4-1143,1143,Domois,47.259174,5.048248,0
4-776,776,Square Darcy,47.32386,5.032297,1
4-81,81,Collège Dorgelès,47.294655,5.059785,0
4-1465,1465,Drapeau,47.33316,5.04398,1
4-1497,1497,Drapeau,47.333172,5.043914,1
4-861,861,Boutaric,47.334919,5.061149,1
4-484,484,Epirey Capnord,47.339756,5.067526,1
4-543,543,Europe Découverte,47.355045,5.044719,0
4-544,544,Europe Découverte,47.355003,5.044915,0
4-300,300,Dolet,47.344711,5.062708,0
4-310,310,Chaput,47.344437,5.065144,0
4-315,315,Cluj,47.346043,5.06655,0
4-318,318,Boirac,47.348286,5.065274,0
4-287,287,Perrenet,47.348755,5.062663,0
4-215,215,Flandres,47.355289,5.065261,0
4-205,205,Ardennes,47.352219,5.06762,0
4-330,330,Bailly,47.349979,5.080074,0
4-339,339,Yser,47.342957,5.077913,0
4-10076,10076,Breuchillière,47.345364,5.075057,0
4-10077,10077,Brot,47.344273,5.072908,0
4-10078,10078,Escaut,47.343086,5.073907,0
4-337,337,Redoute,47.34042,5.077544,0
4-1700,1700,Cracovie,47.341473,5.074368,1
4-343,343,Clairvot,47.346741,5.085298,0
4-340,340,Rosey,47.346504,5.081604,0
4-167,167,Dolet,47.345005,5.062815,0
4-166,166,Chaput,47.344444,5.06566,0
4-165,165,Cluj,47.345909,5.066451,0
4-164,164,Boirac,47.348278,5.065287,0
4-191,191,Perrenet,47.348526,5.062797,0
4-194,194,Flandres,47.355518,5.064783,0
4-202,202,Ardennes,47.35228,5.067663,0
4-162,162,Bailly,47.349998,5.080062,0
4-159,159,Yser,47.342789,5.077758,0
4-10079,10079,Breuchillière,47.345455,5.075088,0
4-10080,10080,Brot,47.34425,5.072722,0
4-10081,10081,Escaut,47.342918,5.073845,0
4-1708,1708,Cracovie,47.341599,5.0744,0
4-238,238,Pont Churchill,47.351303,5.06262,0
4-193,193,Pont Churchill,47.351524,5.062751,0
4-486,486,Dallas CRI,47.335892,5.062628,1
4-79,79,Domaine d'Epoisses,47.236561,5.098115,0
4-1550,1550,Erasme,47.315426,5.067156,1
4-1569,1569,Erasme,47.315399,5.067195,1
4-1466,1466,Europe - Simone Veil,47.353317,5.046194,1
4-1498,1498,Europe - Simone Veil,47.353348,5.045639,1
4-880,880,Fac. des Sciences,47.3158,5.064661,1
4-423,423,Félizots,47.34325,5.023212,0
4-1139,1139,FÉNAY,47.232635,5.063779,0
4-10003,10003,FLAVIGNEROT,47.2784,4.916306,0
4-1232,1232,Motte Giron,47.315578,4.987145,0
4-356,356,Fontaine d'Ouche,47.323036,4.997919,1
4-1467,1467,Foch Gare,47.323505,5.03077,1
4-1499,1499,Foch Gare,47.323536,5.030308,1
4-308,308,FONTAINE Village,47.348171,5.010879,1
4-229,229,Junot,47.339172,5.044431,1
4-1585,1585,DIJON Gare,47.323305,5.028245,1
4-1551,1551,DIJON Gare,47.323324,5.028193,1
4-570,570,Grande Fin,47.350986,5.030686,0
4-583,583,Grande Fin,47.350925,5.030299,0
4-273,273,Grangier,47.322765,5.038251,1
4-1528,1528,Godrans Les Halles,47.325356,5.039137,1
4-1536,1536,Godrans Les Halles,47.325401,5.039126,1
4-406,406,Parc de la Colombière,47.299191,5.040249,0
4-1555,1555,Grésilles Trimolet,47.328907,5.064218,1
4-1571,1571,Grésilles Trimolet,47.328899,5.064191,1
4-1182,1182,Poste,47.323315,5.036704,1
4-425,425,Monnet,47.346882,5.026493,1
4-449,449,Guignard,47.300301,5.059768,1
4-444,444,Guignard,47.300575,5.060219,0
4-500,500,Gay Lussac,47.29073,5.022094,0
4-1469,1469,Carraz,47.300953,5.02102,1
4-1502,1502,Carraz,47.300991,5.020942,1
4-823,823,De Coubertin,47.309151,5.08359,1
4-237,237,Monge Cité de la gastronomie,47.316769,5.030655,1
4-618,618,Hortensias,47.303204,4.996072,1
4-301,301,Houdart,47.33617,5.025014,1
4-1592,1592,HAUTEVILLE,47.367027,5.002748,1
4-1471,1471,Jaurès,47.310654,5.026523,1
4-1504,1504,Jaurès,47.310703,5.026419,1
4-495,495,Jean Bertin,47.35453,5.040878,1
4-545,545,Jean Bertin,47.354855,5.041265,1
4-56,56,Lycée Boivin,47.302364,5.126696,0
4-1188,1188,Ronde,47.31678,5.109752,0
4-1472,1472,Junot,47.339279,5.044595,1
4-1505,1505,Junot,47.339279,5.044528,1
4-496,496,Justice,47.294498,5.021093,0
4-96,96,Lycée Eiffel,47.334389,5.070681,0
4-10,10,Lycée Eiffel,47.334324,5.070744,0
4-12,12,Cap Vert,47.313469,5.094942,1
4-1007,1007,Le Lac,47.325558,5.007602,0
4-126,126,Bief du Moulin,47.28413,5.061008,1
4-1016,1016,Lycée Kir,47.341515,4.966862,0
4-1315,1315,Longvic Z.I.,47.275379,5.061964,0
4-1132,1132,MAGNY,47.276825,5.174128,0
4-1474,1474,1er Mai,47.314705,5.028804,1
4-1507,1507,1er Mai,47.314716,5.028686,1
4-556,556,Mansart,47.312813,5.061557,1
4-1657,1657,Gare SNCF,47.32214,5.030688,1
4-1599,1599,Marmuzots,47.328125,5.01333,1
4-828,828,Urgences CHU,47.322365,5.069854,1
4-92,92,Mont Blanc,47.300331,5.075105,0
4-1246,1246,MARSANNAY Charon,47.267376,4.989676,1
4-152,152,Fassoles,47.334743,5.009319,1
4-1322,1322,CHEVIGNY,47.297997,5.125317,1
4-31,31,St-Mesmin,47.332428,5.018338,1
4-1556,1556,Mazen Sully,47.314713,5.076755,1
4-1572,1572,Mazen Sully,47.314739,5.076717,1
4-1135,1135,Maladière,47.344471,5.000735,0
4-143,143,Monge Cité de la gastronomie,47.318195,5.030423,1
4-1530,1530,Monge Cité de la gastronomie,47.317425,5.031469,1
4-1537,1537,Monge Cité de la gastronomie,47.317471,5.031379,1
4-499,499,Montgolfier,47.291508,5.019249,0
4-509,509,Morvan,47.342194,5.038029,0
4-520,520,Morvan,47.342003,5.038152,0
4-658,658,Montagne de Larrey,47.310555,4.994241,0
4-1204,1204,TALANT Citadelle,47.343433,4.993096,1
4-1475,1475,Nation,47.346596,5.04531,1
4-1508,1508,Nation,47.346607,5.045231,1
4-10000,10000,Les Ateliers,47.295601,5.024389,0
4-10052,10052,Dépôt Navette Personnel,47.295479,5.025389,0
4-1580,1580,Piscine Olympique,47.314991,5.081772,1
4-1581,1581,Piscine Olympique,47.315033,5.081775,1
4-10062,10062,Verger Conservatoire,47.259743,5.079083,0
4-10063,10063,Verger Conservatoire,47.260067,5.078676,0
4-814,814,Pré aux Moines,47.290279,5.10007,1
4-136,136,Parc,47.302555,5.048861,0
4-1025,1025,Bolotte,47.271839,5.003888,0
4-1557,1557,Parc des Sports,47.322689,5.065264,1
4-1573,1573,Parc des Sports,47.322697,5.065304,1
4-992,992,PLOMBIERES,47.346588,4.964914,0
4-491,491,Grésilles Trimolet,47.329166,5.065026,1
4-1558,1558,Poincaré,47.328884,5.05863,1
4-1574,1574,Poincaré,47.328876,5.058577,1
4-542,542,Presles,47.355526,5.034107,0
4-1511,1511,DIJON Valmy,47.364632,5.04653,1
4-1512,1512,DIJON Valmy,47.364623,5.046529,1
4-1019,1019,PERRIGNY,47.264305,5.00736,1
4-674,674,Theuriet,47.33802,5.051416,1
4-1645,1645,ST-APOLLINAIRE Pré Thomas,47.327911,5.085349,1
4-1192,1192,QUETIGNY Europe,47.319576,5.10492,1
4-1559,1559,QUETIGNY Centre La Parenthèse,47.313843,5.109811,1
4-1575,1575,QUETIGNY Centre La Parenthèse,47.31387,5.109813,1
4-1059,1059,QUETIGNY  Allées Cavalières,47.317078,5.118636,0
4-1477,1477,République,47.326866,5.044204,1
4-1510,1510,République,47.326912,5.044167,1
4-1560,1560,République,47.32637,5.045754,1
4-1576,1576,République,47.326382,5.045702,1
4-1692,1692,République,47.326225,5.043536,1
4-1605,1605,République,47.32682,5.04534,1
4-1606,1606,République,47.326347,5.045263,1
4-514,514,Rue de Longvic,47.289658,5.008653,0
4-259,259,Rue de Longvic,47.29105,5.008299,1
4-248,248,Rue de Longvic,47.290806,5.008009,0
4-303,303,Rue de Longvic,47.289913,5.008018,0
4-668,668,Roosevelt,47.34808,5.058019,1
4-605,605,Rossignol Eiffel,47.312775,5.010404,1
4-124,124,Rossignol Eiffel,47.312393,5.010147,0
4-100,100,Rossignol Eiffel,47.312347,5.010171,0
4-1166,1166,Route de Beaune,47.288181,5.012905,0
4-1165,1165,Route de Beaune,47.287388,5.01223,0
4-293,293,Salengro,47.308456,5.057696,1
4-890,890,CHEVIGNY Z.I.,47.293091,5.150568,0
4-849,849,Sennecey Mairie,47.291519,5.102026,0
4-1441,1441,Darcy,47.324108,5.031608,1
4-670,670,Via Romana,47.342854,5.05823,1
4-1276,1276,Sainte-Anne,47.302662,4.98878,1
4-601,601,Ste-Chantal,47.315125,5.023545,1
4-148,148,St-François,47.325344,5.014859,1
4-304,304,St-Luc,47.34182,5.018505,0
4-23,23,St-Michel,47.321285,5.045351,0
4-610,610,Le Suzon,47.347153,5.034545,0
4-611,611,Le Suzon,47.347153,5.034161,0
4-44,44,TALANT Dullin,47.340355,4.992718,1
4-39,39,Jouvet,47.338921,4.996778,0
4-511,511,CHENOVE C. Cial,47.283237,5.020395,0
4-82,82,Théâtre,47.321194,5.04393,1
4-1484,1484,Toison d'Or,47.355419,5.052433,1
4-1514,1514,Toison d'Or,47.35545,5.052395,1
4-428,428,Tuilerie,47.23035,5.07204,0
4-410,410,Tulipes,47.317219,5.001521,0
4-10025,10025,Université,47.310902,5.073145,1
4-1531,1531,Giroud,47.365398,5.049457,1
4-1538,1538,Giroud,47.36541,5.049431,1
4-1532,1532,Pôle Santé,47.361359,5.050947,1
4-1539,1539,Pôle Santé,47.361324,5.050905,1
4-492,492,Valmy Plan B,47.366158,5.048223,0
4-1533,1533,Valendons,47.301819,5.015202,1
4-1540,1540,Valendons,47.301853,5.015217,1
4-15001,15001,DIJON Valmy,47.366062,5.048152,0
4-376,376,ST-APOLLINAIRE Val Sully,47.33662,5.091583,1
4-384,384,Vigne aux Chiens,47.332699,5.076658,0
4-1011,1011,Vaux Bruns,47.335842,4.98345,1
4-141,141,Wilson Carnot,47.316505,5.044248,1
4-746,746,Wilson Dumont,47.315315,5.042044,1
4-336,336,Zénith,47.354042,5.057859,0
4-1487,1487,Zénith,47.356575,5.056876,1
4-1518,1518,Zénith,47.356613,5.056865,1
4-1390,1390,Zénith,47.353935,5.058212,1
